City_ID,City,Lat,Lng,Max Temp,Humidity,Cloudiness,Wind Speed,Country,Date
0,safotu,-13.4513,-172.4018,27.39,81,80,10.68,WS,1697501371
1,bankim,6.083,11.4905,19.51,96,100,0.24,CM,1697501371
2,aasiaat,68.7098,-52.8699,-10.6,98,97,4.06,GL,1697501372
3,ushuaia,-54.8,-68.3,7.81,98,75,7.2,AR,1697501196
4,albany,42.6001,-73.9662,11.43,77,81,1.85,US,1697501372
5,ketchikan,55.3422,-131.6461,13.99,88,75,6.69,US,1697501372
6,hamilton,39.1834,-84.5333,12.07,81,100,3.09,US,1697501372
7,waitangi,-43.9535,-176.5597,13.31,84,74,14.3,NZ,1697501372
8,papatowai,-46.5619,169.4708,9.89,49,80,4.89,NZ,1697501372
9,adamstown,-25.066,-130.1015,22.12,84,38,3.83,PN,1697501373
10,grytviken,-54.2811,-36.5092,-0.3,92,20,4.19,GS,1697501373
11,keflavik,64.0049,-22.5624,5.24,87,100,3.09,IS,1697501373
12,port lincoln,-34.7333,135.8667,14.88,62,8,6.18,AU,1697501373
13,olonkinbyen,70.9221,-8.7187,0.69,71,100,5.46,SJ,1697501373
14,the pas,53.8251,-101.2541,10.46,64,3,1.91,CA,1697501373
15,edinburgh of the seven seas,-37.0676,-12.3116,12.05,72,21,3.78,SH,1697501374
16,bathsheba,13.2167,-59.5167,28.34,78,20,5.66,BB,1697501374
17,coyhaique,-45.5752,-72.0662,9.34,57,75,1.03,CL,1697501374
18,uturoa,-16.7333,-151.4333,25.65,79,69,5.22,PF,1697501374
19,roma,43.2128,-75.4557,11.62,83,100,1.54,US,1697501164
20,avarua,-21.2078,-159.775,24.03,60,75,6.17,CK,1697501374
21,olanchito,15.5,-86.5667,22.91,98,100,0.59,HN,1697501127
22,mata-utu,-13.2816,-176.1745,27.35,79,54,10.08,WF,1697501375
23,berdigestyakh,62.0989,126.6992,-4.84,69,100,4.47,RU,1697501375
24,mpongwe,-13.5091,28.155,20.47,81,100,2.04,ZM,1697501375
25,st. john's,47.5649,-52.7093,9.43,97,100,4.02,CA,1697501212
26,blackmans bay,-43.0167,147.3167,15.41,50,9,0.89,AU,1697501375
27,sorong,-0.8833,131.25,25.8,86,95,3.88,ID,1697501375
28,la passe,45.5549,-0.8967,15.13,61,100,6.15,FR,1697501375
29,kodiak,57.79,-152.4072,8.73,93,75,1.54,US,1697501376
30,kourou,5.1552,-52.6478,28.03,80,47,4.42,GF,1697501376
31,stanley,54.868,-1.6985,0.44,100,0,0.51,GB,1697501376
32,sodankyla,67.4167,26.6,-0.04,92,99,4.32,FI,1697501376
33,dorado,18.4588,-66.2677,29.94,92,73,1.34,PR,1697501376
34,beberibe,-4.1797,-38.1306,25.66,80,42,5.58,BR,1697501178
35,port-aux-francais,-49.35,70.2167,2.81,90,93,12.72,TF,1697501376
36,udachny,66.4167,112.4,-3.64,100,100,1.07,RU,1697501377
37,great falls,47.5002,-111.3008,20.79,48,0,5.66,US,1697501113
38,chania,35.5122,24.0156,21.78,88,40,5.14,GR,1697501377
39,gaitania,3.0906,-75.6723,19.76,77,93,1.91,CO,1697501377
40,taksimo,56.3444,114.8794,0.95,82,100,0.89,RU,1697501377
41,georgetown,5.4112,100.3354,27.75,78,20,1.54,MY,1697501361
42,bethel,41.3712,-73.414,12.74,80,100,0.0,US,1697501378
43,arraial do cabo,-22.9661,-42.0278,22.54,95,19,11.35,BR,1697501378
44,kavaratti,10.5669,72.642,27.8,76,96,4.48,IN,1697501378
45,puerto natales,-51.7236,-72.4875,5.09,89,79,4.3,CL,1697501190
46,abatskoye,56.2875,70.4555,7.95,94,45,3.42,RU,1697501378
47,palikir - national government center,6.9248,158.1611,30.47,74,75,2.57,FM,1697501379
48,dudinka,69.4058,86.1778,-0.18,98,100,2.68,RU,1697501379
49,kharp,66.8014,65.8081,1.4,100,100,0.44,RU,1697501379
50,port elizabeth,-33.918,25.5701,16.84,93,12,3.13,ZA,1697501379
51,iquique,-20.2208,-70.1431,17.87,77,23,1.89,CL,1697501380
52,saint-laurent-du-maroni,5.5039,-54.0289,25.78,88,69,1.52,GF,1697501380
53,iqaluit,63.7506,-68.5145,-4.42,58,13,2.32,CA,1697501380
54,sterling,39.0062,-77.4286,13.84,71,40,4.47,US,1697501380
55,panacan,9.2463,118.4082,27.74,79,83,2.38,PH,1697501380
56,port mathurin,-19.6833,63.4167,24.15,85,3,3.0,MU,1697501381
57,pacific grove,36.6177,-121.9166,24.69,73,0,2.57,US,1697501381
58,vallenar,-28.5708,-70.7581,21.92,43,100,0.48,CL,1697501381
59,ormond-by-the-sea,29.3491,-81.0665,17.83,65,75,3.6,US,1697501381
60,hawaiian paradise park,19.5933,-154.9731,28.73,74,75,5.66,US,1697501299
61,mejit,10.2753,170.8646,28.26,74,43,6.92,MH,1697501382
62,howard springs,-12.497,131.047,31.57,39,74,3.01,AU,1697501382
63,nemuro,43.3236,145.575,9.85,64,33,9.23,JP,1697501382
64,margaret river,-33.95,115.0667,19.62,64,69,3.3,AU,1697501382
65,vorgashor,67.5833,63.95,1.51,98,100,4.44,RU,1697501382
66,namibe,-15.1961,12.1522,17.77,83,56,2.43,AO,1697501340
67,kattivakkam,13.2167,80.3167,27.82,85,74,1.88,IN,1697501382
68,west island,-12.1568,96.8225,25.99,89,75,6.17,CC,1697501383
69,kijang,35.2442,129.2139,11.85,35,0,1.78,KR,1697501169
70,atafu village,-8.5421,-172.5159,28.04,78,70,7.08,TK,1697501383
71,ola,59.5833,151.2833,3.97,93,100,2.77,RU,1697501383
72,qaqortoq,60.7167,-46.0333,1.0,93,100,1.0,GL,1697501383
73,yellowknife,62.456,-114.3525,6.9,97,51,3.58,CA,1697501352
74,nalut,30.3333,10.85,21.44,21,6,3.75,LY,1697501383
75,tazovsky,67.4667,78.7,0.68,82,97,2.73,RU,1697501384
76,kununurra,-15.7667,128.7333,30.99,19,0,2.06,AU,1697501384
77,afaahiti,-17.75,-149.2833,27.93,83,66,5.39,PF,1697501384
78,dryden,49.7833,-92.7503,7.25,59,16,0.82,CA,1697501384
79,luderitz,-26.6481,15.1594,20.13,47,0,4.87,NA,1697501384
80,isangel,-19.55,169.2667,25.98,69,72,5.54,VU,1697501384
81,charters towers,-20.1,146.2667,28.56,30,6,1.4,AU,1697501384
82,wailua homesteads,22.0669,-159.378,28.44,75,20,4.12,US,1697501385
83,bikenibeu village,1.3673,173.1241,27.86,79,100,6.96,KI,1697501385
84,cockburn town,21.4612,-71.1419,29.29,69,84,0.95,TC,1697501385
85,longyearbyen,78.2186,15.6401,-5.09,63,20,3.6,SJ,1697501385
86,fiambala,-27.6871,-67.6149,19.14,28,43,2.13,AR,1697501385
87,suya,9.4667,3.1833,22.9,89,98,2.53,NG,1697501385
88,sinabang,2.4803,96.3801,25.56,85,100,3.6,ID,1697501386
89,lewisville,33.0462,-96.9942,17.63,45,0,3.6,US,1697501151
90,umm kaddadah,13.6017,26.6876,28.91,18,96,7.47,SD,1697501386
91,kerikeri,-35.2268,173.9474,17.73,91,21,4.97,NZ,1697501386
92,ribeira grande,38.5167,-28.7,18.76,88,93,1.79,PT,1697501386
93,motygino,58.1831,94.7592,2.1,86,100,2.68,RU,1697501386
94,sitka,57.0531,-135.33,14.94,58,75,7.72,US,1697501387
95,dalandzadgad,43.5708,104.425,5.45,38,100,3.82,MN,1697501387
96,nouadhibou,20.931,-17.0347,26.99,44,88,7.2,MR,1697501387
97,labytnangi,66.6572,66.4183,0.63,98,100,1.65,RU,1697501387
98,richards bay,-28.783,32.0377,18.73,90,100,8.91,ZA,1697501387
99,puerto ayora,-0.7393,-90.3518,24.19,94,83,1.34,EC,1697501387
100,saipan,15.1355,145.701,28.39,83,20,4.63,MP,1697501387
101,prymors'k,46.7348,36.3443,9.67,78,5,7.71,UA,1697501388
102,chibougamau,49.9168,-74.3659,4.98,72,1,2.29,CA,1697501388
103,enewetak,11.3474,162.3373,28.86,75,8,6.55,MH,1697501388
104,cienfuegos,22.1461,-80.4356,25.08,83,76,2.06,CU,1697501388
105,trairi,-3.2778,-39.2689,26.0,75,2,5.08,BR,1697501123
106,dokkum,53.3222,5.997,8.88,99,100,0.51,NL,1697501388
107,bilibino,68.0546,166.4372,-10.58,96,100,1.54,RU,1697501388
108,whitehorse,60.7161,-135.0538,3.43,93,100,0.0,CA,1697501273
109,santa elena de uairen,4.6167,-61.1333,21.6,83,92,1.83,VE,1697501389
110,emerald,-23.5333,148.1667,29.63,18,4,7.34,AU,1697501389
111,banfora,10.6333,-4.7667,25.07,78,94,1.38,BF,1697501389
112,kone,-21.0595,164.8658,25.24,76,97,2.46,NC,1697501389
113,invercargill,-46.4,168.35,11.68,58,73,4.47,NZ,1697501389
114,hadibu,12.65,54.0333,26.98,74,14,1.58,YE,1697501389
115,college,64.8569,-147.8028,7.97,67,75,1.54,US,1697501390
116,klyuchi,52.2667,79.1667,9.03,67,100,3.84,RU,1697501390
117,hermanus,-34.4187,19.2345,15.15,91,24,4.73,ZA,1697501390
118,weno,7.4515,151.8468,28.97,84,75,0.0,FM,1697501390
119,acarau,-2.8856,-40.12,26.13,76,3,6.13,BR,1697501390
120,tabou,4.423,-7.3528,24.47,91,99,3.26,CI,1697501391
121,yuzhno-kurilsk,44.0306,145.8556,10.76,75,42,5.6,RU,1697501391
122,robinwood,39.637,-77.6569,13.43,78,100,3.09,US,1697501391
123,sompeta,18.9333,84.6,24.8,68,66,1.53,IN,1697501391
124,merizo village,13.2658,144.6691,30.55,86,81,3.58,GU,1697501391
125,bamboo flat,11.7,92.7167,26.05,94,40,1.03,IN,1697501391
126,ust-nera,64.5667,143.2,-17.66,97,64,1.34,RU,1697501391
127,torghay,49.6339,63.4981,10.05,62,0,3.32,KZ,1697501392
128,talnakh,69.4865,88.3972,-1.55,95,100,2.08,RU,1697501392
129,isafjordur,66.0755,-23.124,-0.11,82,100,3.31,IS,1697501392
130,nar'yan-mar,67.6713,53.087,1.17,89,100,4.02,RU,1697501392
131,oranjestad,12.524,-70.027,29.97,84,20,7.2,AW,1697501392
132,yorkton,51.2167,-102.4677,13.34,54,14,2.03,CA,1697501392
133,rio grande,-32.035,-52.0986,20.06,96,93,4.05,BR,1697501393
134,urucui,-7.2294,-44.5561,28.24,35,15,2.94,BR,1697501393
135,puerto deseado,-47.7503,-65.8938,11.7,49,33,8.67,AR,1697501393
136,ataq,14.5377,46.8319,21.39,68,3,2.65,YE,1697501393
137,sainte-suzanne,-20.9061,55.6089,23.12,83,75,2.57,RE,1697501393
138,port-vila,-17.7338,168.3219,27.09,67,60,6.58,VU,1697501393
139,santa cruz,-17.8,-63.1667,29.7,62,7,4.12,BO,1697501393
140,lerwick,60.1545,-1.1494,11.0,86,100,10.46,GB,1697501394
141,broome,42.2506,-75.833,10.66,94,98,0.89,US,1697501338
142,zhangatas,43.5667,69.75,6.33,63,0,4.2,KZ,1697501394
143,nova sintra,14.8667,-24.7167,25.64,71,68,5.76,CV,1697501394
144,lompoc,34.6391,-120.4579,25.01,72,75,8.05,US,1697501394
145,badger,64.8,-147.5333,7.93,55,75,1.54,US,1697501394
146,ar ruways,24.1103,52.7306,28.44,66,0,3.64,AE,1697501394
147,eyl,7.9803,49.8164,26.9,82,23,2.57,SO,1697501395
148,fale old settlement,-9.3852,-171.2468,28.7,77,84,8.36,TK,1697501395
149,san luis de la loma,17.2706,-100.8939,26.46,89,89,2.48,MX,1697501395
150,tofol,5.3248,163.0078,28.88,74,100,1.03,FM,1697501395
151,usinsk,65.9939,57.5281,2.26,99,100,7.15,RU,1697501395
152,tocopilla,-22.092,-70.1979,18.41,73,30,2.12,CL,1697501395
153,thompson,55.7435,-97.8558,7.51,82,86,2.19,CA,1697501368
154,astrakhan,46.3497,48.0408,11.61,72,0,4.02,RU,1697501395
155,namtsy,62.7161,129.6658,-3.87,62,100,4.63,RU,1697501396
156,lihue,21.9789,-159.3672,28.77,68,20,4.12,US,1697501223
157,usogorsk,63.4106,48.6872,3.15,87,100,1.65,RU,1697501396
158,trondheim,63.4305,10.3951,7.05,96,100,0.89,NO,1697501396
159,songling,31.1933,120.7176,19.62,69,0,1.92,CN,1697501396
160,vadso,70.0744,29.7487,2.49,80,20,6.69,NO,1697501396
161,bredasdorp,-34.5322,20.0403,14.26,92,17,2.99,ZA,1697501397
162,east london,-33.0153,27.9116,16.85,81,85,5.99,ZA,1697501397
163,selfoss,63.9331,-20.9971,3.36,85,100,2.39,IS,1697501397
164,touros,-5.1989,-35.4608,25.33,75,46,8.69,BR,1697501397
165,taoudenni,22.6783,-3.9836,29.74,16,91,3.0,ML,1697501397
166,quelimane,-17.8786,36.8883,24.78,89,94,3.74,MZ,1697501397
167,gadzhiyevo,69.2551,33.3362,3.39,76,100,12.01,RU,1697501398
168,smithers,54.7804,-127.1743,8.19,95,100,0.44,CA,1697501398
169,hithadhoo,-0.6,73.0833,26.95,73,56,7.72,MV,1697501398
170,port blair,11.6667,92.75,26.02,94,40,1.03,IN,1697501398
171,sheridan,44.8333,-106.9173,20.39,45,0,2.57,US,1697501398
172,itaituba,-4.2761,-55.9836,29.27,48,96,1.88,BR,1697501398
173,harper,4.375,-7.7169,24.71,89,99,3.57,LR,1697501361
174,axim,4.8699,-2.2405,24.45,90,65,3.26,GH,1697501399
175,nizhniy kuranakh,58.8353,125.4869,-2.38,70,100,0.78,RU,1697501399
176,prince rupert,54.3161,-130.3201,11.37,93,100,2.71,CA,1697501399
177,santanyi,39.3546,3.1291,19.34,75,95,2.45,ES,1697501399
178,callao,-12.0667,-77.15,20.4,77,100,4.63,PE,1697501399
179,crucecita,-28.95,-58.9833,23.13,93,75,6.62,AR,1697501399
180,ironwood,46.4547,-90.171,7.12,81,100,0.0,US,1697501399
181,iskateley,67.6803,53.1512,1.12,89,100,4.02,RU,1697501400
182,tiksi,71.6872,128.8694,-12.68,93,95,3.28,RU,1697501400
183,itupiranga,-5.1347,-49.3267,26.18,63,81,0.89,BR,1697501401
184,port hedland,-20.3167,118.5667,32.03,7,0,6.69,AU,1697501401
185,sandnessjoen,66.0217,12.6316,0.29,72,93,3.69,NO,1697501402
186,new mirpur,33.1418,73.7674,16.33,76,100,1.43,PK,1697501403
187,swakopmund,-22.6833,14.5333,13.32,88,6,1.34,NA,1697501403
188,flying fish cove,-10.4217,105.6791,26.82,89,75,5.14,CX,1697501404
189,greymouth,-42.4667,171.2,10.82,86,100,1.3,NZ,1697501370
190,hasaki,35.7333,140.8333,20.16,63,0,4.57,JP,1697501407
191,katsuura,35.1333,140.3,20.3,67,0,2.87,JP,1697501407
192,carnarvon,-24.8667,113.6333,26.78,39,0,4.7,AU,1697501407
193,champerico,14.3,-91.9167,25.07,88,98,1.02,GT,1697501407
194,vila franca do campo,37.7167,-25.4333,20.49,99,94,4.39,PT,1697501408
195,chonchi,-42.6128,-73.8092,8.95,91,6,1.89,CL,1697501408
196,eraan,9.0629,117.7016,27.91,75,83,1.55,PH,1697501325
197,tadine,-21.55,167.8833,23.67,78,63,5.16,NC,1697501409
198,portland,45.5234,-122.6762,18.45,92,100,4.02,US,1697500754
199,berezovyy,51.6667,135.7,3.49,92,96,0.77,RU,1697501409
200,charlottetown,46.2352,-63.1267,9.32,96,100,7.15,CA,1697501302
201,shimoda,34.6667,138.95,22.28,67,1,1.98,JP,1697501161
202,ocean city,39.2776,-74.5746,14.01,79,75,0.45,US,1697501270
203,borzya,50.3833,116.5167,4.11,65,56,7.63,RU,1697501409
204,gobernador roca,-27.1864,-55.4643,23.33,88,98,5.72,AR,1697501410
205,marovoay,-16.1,46.6333,25.09,88,61,0.73,MG,1697501410
206,oamaru,-45.0784,170.9801,9.16,75,100,1.16,NZ,1697501410
207,hotan,37.0997,79.9269,15.32,22,100,1.87,CN,1697501410
208,polyarnyy,69.1989,33.4478,3.44,79,100,11.7,RU,1697501411
209,xining,36.6167,101.7667,5.08,84,100,1.22,CN,1697501411
210,saynshand,44.8824,110.1163,8.51,37,100,6.34,MN,1697501411
211,roccella ionica,38.322,16.4009,21.14,81,91,1.18,IT,1697501411
212,anadyr,64.75,177.4833,-1.72,79,20,5.0,RU,1697501412
213,northam,51.0333,-4.2167,9.78,84,100,8.89,GB,1697501412
214,leh,34.1667,77.5833,2.25,67,98,1.44,IN,1697501218
215,san andres,12.5847,-81.7006,26.01,94,40,2.57,CO,1697501121
216,sao paulo de olivenca,-3.3783,-68.8725,23.11,98,82,1.12,BR,1697501412
217,ancud,-41.8697,-73.8203,7.67,85,14,2.39,CL,1697501413
218,la maddalena,41.2142,9.4083,17.03,79,100,2.42,IT,1697501413
219,haiku-pauwela,20.9219,-156.3051,29.01,64,40,9.77,US,1697501413
220,antsiranana,-12.2787,49.2917,22.94,82,22,2.83,MG,1697501413
221,gowurdak,37.8124,66.0466,12.88,36,0,1.1,TM,1697501413
222,kaisiadorys,54.8667,24.45,1.94,83,4,3.33,LT,1697501414
223,neftegorsk,52.802,51.166,9.66,42,61,8.96,RU,1697501414
224,diffa,13.3154,12.6113,28.42,33,38,2.5,NE,1697501414
225,pangody,65.85,74.4859,-0.15,95,100,2.69,RU,1697501414
226,fasa,28.9383,53.6482,17.81,39,0,0.98,IR,1697501414
227,kavarna,43.4333,28.3333,3.6,52,27,2.07,BG,1697501414
228,tari,12.4086,4.4914,28.39,50,99,3.16,NG,1697501415
229,inari,68.906,27.0288,0.11,92,52,2.29,FI,1697501415
230,al wakrah,24.85,51.3333,27.05,75,0,2.7,QA,1697501415
231,gagliano del capo,39.8442,18.3695,16.56,55,79,2.5,IT,1697501415
232,prince george,53.9166,-122.753,9.58,92,100,1.34,CA,1697501239
233,remire-montjoly,4.9167,-52.2667,28.02,83,0,2.06,GF,1697501416
234,yatou,37.15,122.3833,15.04,51,0,1.53,CN,1697501416
235,woolgoolga,-30.1106,153.2007,21.13,47,0,8.48,AU,1697501416
236,kapuskasing,49.4169,-82.4331,3.3,94,65,1.7,CA,1697501416
237,kegeyli shahar,42.7767,59.6078,5.05,34,0,4.24,UZ,1697501416
238,lata,40.1629,-8.3327,22.82,77,97,6.73,PT,1697501416
239,neufchateau,48.35,5.7,5.3,65,89,1.89,FR,1697501417
240,sao felix do xingu,-6.6447,-51.995,27.9,57,97,0.87,BR,1697501135
241,hit,33.6416,42.8251,22.23,41,7,3.83,IQ,1697501417
242,dikwa,12.024,13.9165,28.46,52,29,2.69,NG,1697501417
243,isara,6.9928,3.6819,23.23,96,90,1.48,NG,1697501417
244,saudarkrokur,65.7461,-19.6394,0.7,84,100,1.37,IS,1697501417
245,jamestown,42.097,-79.2353,9.29,98,100,2.57,US,1697501355
246,linxia chengguanzhen,35.6003,103.2064,6.08,90,100,1.47,CN,1697501418
247,tikhvin,59.6451,33.5294,1.72,86,35,3.13,RU,1697501418
248,tindouf,27.6711,-8.1474,26.52,21,12,2.13,DZ,1697501418
249,campo maior,-4.8278,-42.1686,29.34,45,61,1.5,BR,1697501418
250,tegueste,28.5167,-16.3167,24.64,36,0,3.58,ES,1697501418
251,hovd,48.0056,91.6419,0.56,44,3,1.95,MN,1697501419
252,jiwani,25.05,61.7417,27.05,77,73,2.93,PK,1697501419
253,tromso,69.6496,18.957,1.01,80,20,1.03,NO,1697501419
254,fada,9.5667,8.3,21.48,86,100,0.14,NG,1697501419
255,ma'rib,15.4591,45.3253,22.46,23,50,2.33,YE,1697501419
256,puerto escondido,15.85,-97.0667,30.46,48,40,2.57,MX,1697501419
257,kenora,49.8167,-94.4337,10.99,66,2,1.34,CA,1697501420
258,queenstown,-31.8976,26.8753,10.11,93,96,2.39,ZA,1697501420
259,port douglas,-16.4833,145.4667,25.41,56,48,2.34,AU,1697501420
260,turpan,42.9333,89.1667,14.13,34,1,2.66,CN,1697501420
261,cabo san lucas,22.8909,-109.9124,32.17,66,0,2.06,MX,1697501240
262,zemio,5.0314,25.1361,20.28,97,100,0.97,CF,1697501421
263,keyser,39.4409,-78.9739,11.86,80,100,2.96,US,1697501421
264,la'ie,21.6477,-157.9253,31.14,70,80,4.39,US,1697501421
265,demopolis,32.5176,-87.8364,13.97,62,0,0.0,US,1697501210
266,machico,32.7,-16.7667,24.84,80,20,3.09,PT,1697501422
267,newport beach,33.6189,-117.9289,35.42,68,20,2.24,US,1697501422
268,norak,38.3892,69.3227,9.84,67,73,1.94,TJ,1697501175
269,sao jose da coroa grande,-8.8978,-35.1478,23.94,81,62,3.94,BR,1697501422
270,moranbah,-22.0016,148.0466,30.28,25,11,5.78,AU,1697501422
271,sumenep,-7.0167,113.8667,28.8,67,55,5.15,ID,1697501423
272,karacabey,40.2152,28.4038,13.5,80,92,2.16,TR,1697501423
273,ilhabela,-23.7781,-45.3581,22.81,96,83,3.12,BR,1697501222
274,lakhipur,26.0299,90.3041,21.21,92,1,1.92,IN,1697501423
275,iwaki,37.05,140.8833,20.07,59,11,1.34,JP,1697501424
276,geraldton,-28.7667,114.6,23.23,73,40,2.57,AU,1697501424
277,guerrero negro,27.9769,-114.0611,23.63,63,15,7.12,MX,1697501366
278,mayenne,48.3333,-0.6667,7.69,50,100,4.74,FR,1697501424
279,al jawf,29.5,38.75,18.12,44,0,3.3,SA,1697501424
280,chos malal,-37.3781,-70.2709,14.61,25,0,4.14,AR,1697501424
281,oroqen zizhiqi,50.5667,123.7167,2.7,41,96,1.28,CN,1697501424
282,choibalsan,48.0667,114.5,5.32,59,87,4.97,MN,1697501425
283,pekalongan,-6.8886,109.6753,30.01,65,50,1.13,ID,1697501425
284,ishinomaki,38.4167,141.3,16.62,55,0,10.18,JP,1697501361
285,idritsa,56.3316,28.8988,1.94,89,34,3.96,RU,1697501425
286,karratha,-20.7377,116.8463,31.21,14,0,6.85,AU,1697501425
287,urengoy,65.9667,78.3667,1.17,97,100,1.79,RU,1697501425
288,baia,47.4167,26.2167,8.3,75,13,1.43,RO,1697501426
289,dunn,44.95,-91.8835,8.65,85,0,0.0,US,1697501426
290,okhotsk,59.3833,143.3,-5.49,70,48,10.0,RU,1697501426
291,aqadyr,48.2553,72.8483,5.86,58,15,2.41,KZ,1697501426
292,linhares,-19.3911,-40.0722,23.26,86,9,2.06,BR,1697501427
293,punta arenas,-53.15,-70.9167,8.95,57,98,7.04,CL,1697501427
294,quirinopolis,-18.4483,-50.4517,30.74,35,65,0.66,BR,1697501427
295,hono,57.6897,11.6497,11.2,89,29,11.22,SE,1697501427
296,puerto aysen,-45.4,-72.7,4.76,98,81,1.87,CL,1697501427
297,ilulissat,69.2167,-51.1,-7.99,73,75,10.8,GL,1697501427
298,al bardiyah,31.7561,25.0865,21.75,86,0,4.47,LY,1697501428
299,pergamino,-33.89,-60.5736,19.34,72,6,4.81,AR,1697501323
300,crane,31.3974,-102.3501,21.0,32,0,3.06,US,1697501428
301,qingdao,36.0986,120.3719,18.1,46,0,0.61,CN,1697501428
302,chazuta,-6.5742,-76.1367,28.47,80,81,0.4,PE,1697501428
303,labrador city,52.9463,-66.9114,2.3,79,38,2.63,CA,1697501428
304,miches,18.9836,-69.0476,26.42,85,74,2.96,DO,1697501428
305,mahina,-17.5065,-149.489,28.87,61,40,1.54,PF,1697501418
306,las tablas,7.7667,-80.2833,26.34,86,88,2.68,PA,1697501429
307,astara,38.5,48.6667,15.04,68,47,2.32,AZ,1697501429
308,new norfolk,-42.7826,147.0587,16.07,41,12,1.81,AU,1697501429
309,fort bragg,35.139,-79.006,13.75,65,100,1.54,US,1697501429
310,raja,8.4596,25.678,20.92,95,100,1.74,SS,1697501429
311,kiunga,-6.1219,141.2906,24.61,92,99,0.99,PG,1697501429
312,llandrindod wells,52.2416,-3.3787,6.88,89,100,5.06,GB,1697501430
313,las lomitas,-24.7096,-60.593,37.68,23,32,4.99,AR,1697501430
314,mary,37.0,62.5,14.62,32,0,4.79,TM,1697501216
315,fortuna,40.5982,-124.1573,19.4,96,75,0.45,US,1697501316
316,calabozo,8.9242,-67.4293,26.34,79,85,0.82,VE,1697501430
317,ginir,7.1333,40.7,14.04,82,98,1.9,ET,1697501430
318,margate,51.3813,1.3862,12.17,69,100,1.79,GB,1697501430
319,dosso,13.049,3.1937,28.9,44,87,3.55,NE,1697501430
320,lazaro cardenas,17.9583,-102.2,27.63,81,95,1.24,MX,1697501431
321,nova xavantina,-14.6667,-52.35,30.59,31,56,1.43,BR,1697501431
322,kasaragod,12.5,75.0,24.97,90,100,1.69,IN,1697501431
323,nadym,65.5333,72.5167,1.06,94,100,3.53,RU,1697501431
324,aykhal,66.0,111.5,-3.85,94,99,4.92,RU,1697501244
325,ambon,-3.6954,128.1814,29.37,95,40,2.06,ID,1697501431
326,warmbad,-28.45,18.7333,19.71,28,0,1.85,NA,1697501432
327,kpalime,6.9,0.6333,22.57,98,97,0.99,TG,1697501432
328,chifeng,42.2683,118.9636,10.72,33,54,2.24,CN,1697501432
329,trinidad,-14.8333,-64.9,30.06,46,18,2.1,BO,1697501432
330,gaiman,-43.2897,-65.4929,12.51,39,64,6.2,AR,1697501433
331,vilyuchinsk,52.9306,158.4028,9.15,87,100,10.67,RU,1697501433
332,tokar,18.4254,37.729,29.4,66,78,4.95,SD,1697501433
333,dakhla,23.6848,-15.958,22.16,81,96,4.84,EH,1697501433
334,grants pass,42.439,-123.3284,19.73,90,100,1.54,US,1697501433
335,yelizovo,53.1873,158.3805,9.08,66,75,8.0,RU,1697501434
336,hammerfest,70.6634,23.6821,0.25,100,100,4.12,NO,1697501434
337,bereeda,11.8704,51.0579,27.02,77,8,3.53,SO,1697501434
338,katabu,-4.9333,122.5167,29.57,54,58,3.74,ID,1697501434
339,rikaze,29.25,88.8833,3.3,56,67,1.75,CN,1697501434
340,kapoeta,4.7717,33.5903,21.5,89,100,2.08,SS,1697501435
341,sisimiut,66.9395,-53.6735,-7.13,86,91,5.66,GL,1697501435
342,galesong,-5.3166,119.3661,27.01,50,57,1.05,ID,1697501435
343,daru,-9.0763,143.2092,27.09,76,68,5.05,PG,1697501435
344,punta del este,-34.9667,-54.95,15.06,97,75,3.6,UY,1697501175
345,qui nhon,13.7667,109.2333,24.82,89,100,2.7,VN,1697501436
346,al jumum,21.6169,39.6981,27.02,62,7,1.78,SA,1697501436
347,port alfred,-33.5906,26.891,15.1,95,90,6.9,ZA,1697501436
348,port isabel,26.0734,-97.2086,21.04,60,0,4.02,US,1697501436
349,harstad,68.799,16.5293,3.23,98,99,0.45,NO,1697501437
350,codrington,-38.2667,141.9667,13.79,56,0,1.68,AU,1697501437
351,tungi,23.89,90.4058,26.0,83,40,0.0,BD,1697501437
352,san miguel,13.4833,-88.1833,24.82,95,100,1.08,SV,1697501437
353,arteche,12.2645,125.4048,28.05,76,93,1.28,PH,1697501437
354,faya-largeau,17.9257,19.1043,28.49,21,50,5.77,TD,1697501437
355,akrehamn,59.2667,5.1833,10.23,71,75,7.72,NO,1697501438
356,moyynkum,44.2914,72.9469,10.92,57,0,8.69,KZ,1697501438
357,shalqar,47.8333,59.6,9.42,60,0,3.96,KZ,1697501438
358,huautla de jimenez,18.1315,-96.8409,11.87,98,100,1.77,MX,1697501438
359,tarawa,1.419,172.984,27.89,79,100,6.71,KI,1697501223
360,nejo,9.5,35.5,13.73,97,99,1.0,ET,1697501238
361,sola,-13.8833,167.55,26.0,83,67,8.14,VU,1697501438
362,tolanaro,-25.0319,46.9987,21.41,84,100,0.8,MG,1697501438
363,zhangye,38.9342,100.4517,8.67,38,97,0.95,CN,1697501439
364,silute,55.3489,21.4831,6.4,61,29,3.81,LT,1697501439
365,alice springs,-23.7,133.8833,21.75,26,0,7.2,AU,1697501439
366,susuman,62.7833,148.1667,-17.79,83,4,0.89,RU,1697501439
367,murzuq,25.9155,13.9184,22.35,20,0,3.83,LY,1697501439
368,say,13.1007,2.3689,29.49,47,87,4.83,NE,1697501440
369,whakatane,-37.9585,176.9854,16.97,78,73,4.4,NZ,1697501440
370,souillac,-20.5167,57.5167,21.21,88,20,1.54,MU,1697501440
371,phan rang-thap cham,11.5667,108.9833,25.99,83,86,1.42,VN,1697501440
372,bonthe,7.5264,-12.505,25.44,86,87,2.29,SL,1697501440
373,borda da mata,-22.2742,-46.1653,19.57,87,92,1.4,BR,1697501441
374,huangshi,30.2042,115.0776,19.43,64,0,2.91,CN,1697501441
375,rongelap,11.1635,166.8941,28.63,76,81,8.38,MH,1697501441
376,bloemfontein,-29.1211,26.214,11.71,76,0,3.09,ZA,1697501176
377,kashgar,39.4547,75.9797,14.68,31,100,1.7,CN,1697501441
378,kokstad,-30.5472,29.4241,9.34,98,100,1.78,ZA,1697501441
379,kuala tungkal,-0.8167,103.4667,25.4,82,46,2.74,ID,1697501441
380,mandla,22.6,80.3833,19.39,84,2,0.28,IN,1697501442
381,mbanza kongo,-6.267,14.2401,22.56,85,100,2.02,AO,1697501442
382,san patricio,28.017,-97.5169,22.52,39,0,3.01,US,1697501442
383,sao miguel do araguaia,-13.275,-50.1628,29.77,25,8,1.33,BR,1697501442
384,lebu,-37.6167,-73.65,10.19,82,0,10.16,CL,1697501442
385,san jose,37.3394,-121.895,25.88,59,75,25.03,US,1697501236
386,ardesen,41.1911,40.9875,17.01,90,100,8.08,TR,1697501443
387,ta`u,-14.2336,-169.5144,26.74,79,52,8.32,AS,1697501443
388,winnemucca,40.973,-117.7357,24.03,22,0,2.06,US,1697501444
389,newman,37.3138,-121.0208,28.13,50,100,1.79,US,1697501444
390,weilerswist,50.7667,6.8333,7.4,93,75,1.54,DE,1697501444
391,sabzevar,36.2126,57.6819,18.03,26,71,2.63,IR,1697501444
392,monte alegre,-2.0078,-54.0692,29.35,52,93,1.24,BR,1697501444
393,cold lake,54.4502,-110.2017,11.6,55,66,2.28,CA,1697501444
394,domna,51.8971,113.1573,3.91,60,20,5.0,RU,1697501445
395,poronaysk,49.2167,143.1167,5.72,90,92,5.25,RU,1697501445
396,kuanda,56.3161,116.0806,0.44,96,100,1.49,RU,1697501445
397,ternate,0.8,127.4,27.85,75,83,1.19,ID,1697501445
398,mount gambier,-37.8333,140.7667,14.52,52,44,1.49,AU,1697501445
399,kailua-kona,19.6406,-155.9956,28.98,79,20,5.14,US,1697501340
400,horta,38.5333,-28.6333,18.34,88,92,0.89,PT,1697501445
401,coahuayana de hidalgo,18.7,-103.6583,26.4,93,79,2.22,MX,1697501446
402,vikindu,-7.0067,39.2985,23.13,93,19,1.52,TZ,1697501446
403,mogadishu,2.0371,45.3438,26.25,87,82,3.76,SO,1697501446
404,menaka,15.9182,2.4022,31.97,18,56,1.94,ML,1697501446
405,boende,-0.2167,20.8667,21.44,92,96,0.94,CD,1697501446
406,papao,-17.75,-149.55,28.82,82,61,5.76,PF,1697501446
407,maryville,35.7565,-83.9705,11.05,89,100,2.24,US,1697501209
408,grimmen,54.1121,13.0405,2.77,84,25,2.66,DE,1697501447
409,fomboni,-12.28,43.7425,25.84,81,7,6.96,KM,1697501447
410,plastun,44.7561,136.2939,3.94,63,18,4.47,RU,1697501447
411,ambovombe,-25.1667,46.0833,21.19,77,100,2.14,MG,1697501447
412,medicine hat,50.0501,-110.6683,19.01,46,87,1.34,CA,1697501333
413,tashtyp,52.7939,89.8983,3.7,77,96,2.83,RU,1697501447
414,sparti,37.0733,22.4297,20.53,81,82,0.25,GR,1697501448
415,amga,60.8953,131.9608,-7.23,73,85,1.34,RU,1697501448
416,nyurba,63.2842,118.3319,-2.2,90,100,4.02,RU,1697501448
417,praia da vitoria,38.7333,-27.0667,19.31,87,83,5.28,PT,1697501448
418,lukolela,-1.0605,17.1821,21.97,93,97,0.56,CD,1697501448
419,marsa alam,25.0757,34.8918,25.16,53,0,6.09,EG,1697501448
420,colares,38.7992,-9.4469,23.55,94,57,10.28,PT,1697501449
421,sinazongwe,-17.2614,27.4618,25.41,73,100,4.87,ZM,1697501449
422,dzhalagash,45.0833,64.6667,9.83,49,0,6.24,KZ,1697501449
423,argo,37.6333,22.7333,19.88,76,71,2.12,GR,1697501449
424,tazacorte,28.629,-17.9293,25.54,35,0,4.92,ES,1697501449
425,tamanrasset,22.785,5.5228,22.25,21,16,2.44,DZ,1697501449
426,magadan,59.5667,150.8,3.63,66,100,1.34,RU,1697501450
427,chai badan,15.2,101.1333,26.74,89,55,1.54,TH,1697501450
428,al bayda',32.7627,21.7551,16.72,90,5,3.48,LY,1697501450
429,tobelo,1.7284,128.0095,28.22,75,60,1.67,ID,1697501450
430,utete,-7.986,38.758,22.91,96,59,1.03,TZ,1697501450
431,hobyo,5.3505,48.5268,27.29,78,73,4.44,SO,1697501178
432,lautoka,-17.6167,177.4667,28.32,54,79,3.58,FJ,1697501451
433,nieuw amsterdam,5.8833,-55.0833,28.9,80,45,3.78,SR,1697501451
434,fang,19.9169,99.2145,20.63,98,61,0.33,TH,1697501451
435,egra,50.0796,12.3739,3.23,85,100,1.28,CZ,1697501451
436,raduzhnyy,62.0961,77.475,3.28,93,78,2.5,RU,1697501451
437,tavsanli,39.5424,29.4987,11.05,83,95,2.17,TR,1697501451
438,bairnsdale,-37.8333,147.6167,16.14,56,78,0.89,AU,1697501452
439,pyt-yakh,60.7499,72.8582,7.03,97,100,2.48,RU,1697501452
440,san jose de feliciano,-30.3845,-58.7517,21.19,95,28,2.69,AR,1697501452
441,halabjah,35.1778,45.9861,19.2,47,61,1.0,IQ,1697501452
442,karsun,54.1994,46.9827,12.37,43,97,6.71,RU,1697501452
443,korla,41.7597,86.1469,10.64,43,3,3.68,CN,1697501452
444,porto novo,6.4965,2.6036,25.71,86,93,3.16,BJ,1697501452
445,port dickson,2.5228,101.7959,25.36,77,70,1.58,MY,1697501453
446,sabancuy,18.9667,-91.1833,26.53,67,96,6.64,MX,1697501453
447,luanco,43.6152,-5.7934,19.05,93,84,3.6,ES,1697501453
448,broken hill,-31.95,141.4333,14.92,36,0,6.18,AU,1697501453
449,ar ruseris,11.8659,34.3869,25.07,78,100,3.71,SD,1697501453
450,xindian,36.7975,118.2944,18.47,51,0,1.5,CN,1697501454
451,quellon,-43.1167,-73.6167,7.57,83,5,5.17,CL,1697501454
452,puerto baquerizo moreno,-0.9,-89.6,23.81,80,94,3.42,EC,1697501454
453,ambodifotatra,-16.9833,49.85,25.01,83,94,5.51,MG,1697501454
454,murwara,23.85,80.4,20.13,82,18,2.0,IN,1697501454
455,minot air force base,48.4209,-101.3391,16.1,61,40,2.06,US,1697501455
456,riverside,33.7333,-116.0508,35.44,14,0,2.06,US,1697501455
457,ust'-ilimsk,58.0006,102.6619,1.36,92,99,3.58,RU,1697501455
458,port augusta,-32.5,137.7667,18.4,31,0,3.06,AU,1697501455
459,holualoa,19.6228,-155.9522,26.91,79,20,5.14,US,1697501455
460,safford,32.834,-109.7076,31.53,22,0,3.09,US,1697501455
461,inhambupe,-11.7844,-38.3531,19.96,91,3,2.8,BR,1697501455
462,tagiura,32.8817,13.3506,24.61,41,0,5.41,LY,1697501456
463,tual,-5.6667,132.75,26.66,82,63,5.47,ID,1697501364
464,arafat,21.3594,39.9664,27.78,55,16,0.9,SA,1697501456
465,petropavlovsk-kamchatsky,53.0452,158.6483,8.33,88,75,8.0,RU,1697501456
466,mount pearl,47.5166,-52.7813,8.97,97,100,6.26,CA,1697501456
467,lagoa,39.05,-27.9833,19.62,81,80,4.54,PT,1697501456
468,pedregulho,-20.2569,-47.4767,23.04,58,45,1.8,BR,1697501457
469,garachico,28.7781,-17.7646,24.06,69,0,4.63,ES,1697501457
470,timbuktu,16.7735,-3.0074,31.79,13,93,3.62,ML,1697501457
471,lorengau,-2.0226,147.2712,29.34,68,100,2.04,PG,1697501457
472,kirakira,-10.4544,161.9205,28.34,78,100,3.05,SB,1697501457
473,pemba,-12.974,40.5178,25.31,86,17,5.42,MZ,1697501458
474,izluchinsk,60.9794,76.9242,7.01,94,84,3.33,RU,1697501458
475,mugia,43.1041,-9.2179,22.31,70,91,11.57,ES,1697501458
476,katsuren-haebaru,26.3369,127.8719,26.01,57,20,4.63,JP,1697501458
477,inhambane,-23.865,35.3833,20.69,90,100,2.71,MZ,1697501458
478,kapiri mposhi,-13.9652,28.6809,20.63,78,100,0.78,ZM,1697501459
479,el calafate,-50.3408,-72.2768,6.56,77,77,4.83,AR,1697501459
480,ibadan,7.3878,3.8964,22.54,97,94,1.68,NG,1697501450
481,saldanha,-33.0117,17.9442,19.03,70,5,3.08,ZA,1697501459
482,huarmey,-10.0681,-78.1522,20.1,86,74,4.07,PE,1697501459
483,manokwari,-0.8667,134.0833,28.53,67,86,2.08,ID,1697501460
484,sungailiat,-1.85,106.1333,28.07,74,89,5.3,ID,1697501460
485,kolonia town,6.964,158.206,31.06,74,75,2.57,FM,1697501460
486,urangan,-25.3,152.9,22.37,69,18,10.05,AU,1697501460
487,fort mcmurray,56.7268,-111.381,12.43,59,33,0.75,CA,1697501225
488,whangarei,-35.7317,174.3239,21.08,56,31,4.28,NZ,1697501460
489,okha,53.5739,142.9478,7.88,84,96,6.89,RU,1697501392
490,saint-philippe,-21.3585,55.7679,23.77,88,72,0.96,RE,1697501461
491,waiuku,-37.25,174.75,21.29,65,99,3.25,NZ,1697501463
492,jaicos,-7.3592,-41.1378,26.46,31,6,2.93,BR,1697501466
493,klaksvik,62.2266,-6.589,8.51,84,99,6.81,FO,1697501467
494,monchegorsk,67.9397,32.8739,1.5,97,100,7.95,RU,1697501469
495,hemsby,52.6971,1.6918,12.77,65,100,6.22,GB,1697501469
496,awjilah,29.1081,21.2869,20.48,62,0,2.89,LY,1697501469
497,noumea,-22.2763,166.4572,26.99,77,98,0.07,NC,1697501260
498,megion,61.0296,76.1136,7.01,98,83,3.44,RU,1697501469
499,cafarnaum,-11.6936,-41.4683,21.69,51,0,4.6,BR,1697501470
500,nusaybin,37.0778,41.2178,19.52,54,48,2.55,TR,1697501471
501,magdagachi,53.45,125.8,-0.32,42,65,1.66,RU,1697501472
502,yoloten,37.2989,62.3597,14.1,32,0,5.33,TM,1697501472
503,soio,-6.1349,12.3689,24.84,84,79,2.95,AO,1697501473
504,egilsstadir,65.2653,-14.3948,-0.05,100,100,1.03,IS,1697501473
505,amurzet,47.6967,131.0981,4.68,38,1,5.17,RU,1697501474
506,uzhur,55.3036,89.8339,6.37,77,100,8.05,RU,1697501474
507,sunland park,31.7965,-106.58,28.25,24,0,3.6,US,1697501474
508,fujin,47.26,132.0322,4.37,42,0,6.42,CN,1697501474
509,walvis bay,-22.9575,14.5053,13.38,92,9,1.66,NA,1697501474
510,noosa heads,-26.3833,153.15,22.97,63,89,7.89,AU,1697501340
511,robertsport,6.7533,-11.3686,25.83,84,100,3.15,LR,1697501474
512,ghat,24.9647,10.1728,24.82,20,8,2.32,LY,1697501475
513,kenai,60.5544,-151.2583,8.94,68,40,7.72,US,1697501475
514,pisco,-13.7,-76.2167,20.03,83,75,6.17,PE,1697501475
515,suntar,62.1444,117.6319,2.3,99,100,2.24,RU,1697501475
516,dharampur,20.5333,73.1833,23.98,68,19,1.66,IN,1697501475
517,new westminster,49.2068,-122.9109,15.64,93,99,2.24,CA,1697501288
518,mecitozu,40.52,35.2953,8.27,87,99,3.51,TR,1697501475
519,banda aceh,5.5577,95.3222,25.73,85,100,6.21,ID,1697501476
520,hami,42.8,93.45,9.32,50,99,2.86,CN,1697501476
521,kapa'a,22.0752,-159.319,29.18,72,20,4.12,US,1697501387
522,lashio,22.9333,97.75,15.97,94,66,0.79,MM,1697501476
523,west bay,19.3667,-81.4167,30.04,79,40,2.57,KY,1697501476
524,bomdila,27.25,92.4,8.31,84,32,3.03,IN,1697501477
525,aral,40.5156,81.2636,13.42,38,66,4.07,CN,1697501477
526,hailun,47.45,126.9333,4.33,37,35,2.45,CN,1697501477
527,paita,-5.0892,-81.1144,20.44,84,87,6.21,PE,1697501477
528,almese-rivera,45.1191,7.4011,11.9,73,88,0.8,IT,1697501477
529,silvania,-16.6589,-48.6081,25.54,41,19,2.56,BR,1697501477
530,puerto santa,-8.9906,-78.6456,19.05,90,93,3.81,PE,1697501478
531,thunder bay,48.4001,-89.3168,6.63,80,2,1.4,CA,1697501400
532,saint-pierre,-21.3393,55.4781,23.82,73,100,1.54,RE,1697501478
533,watsa,3.0372,29.5355,16.8,99,98,1.07,CD,1697501478
534,kizner,56.2749,51.508,9.36,53,81,6.01,RU,1697501478
535,bumba,2.1833,22.4667,21.18,97,98,0.98,CD,1697501478
536,kristiansund,63.1115,7.732,7.36,93,75,3.6,NO,1697501479
537,wynyard,-41.0,145.7167,11.37,54,0,2.67,AU,1697501479
538,necochea,-38.5473,-58.7368,9.17,79,42,7.13,AR,1697501479
539,ratoath,53.5081,-6.4625,11.16,87,75,4.12,IE,1697501480
540,dingzhou,38.5131,114.9956,11.06,52,11,0.75,CN,1697501480
541,kill devil hills,36.0307,-75.676,15.01,63,0,2.57,US,1697501480
542,nagqu,31.5,92.0,-0.82,47,100,1.72,CN,1697501480
543,chernyshevsk,52.5243,117.0174,3.24,58,48,3.18,RU,1697501354
544,segezha,63.7415,34.3222,2.75,85,100,8.05,RU,1697501480
545,nuku'alofa,-21.1333,-175.2,24.19,88,75,7.72,TO,1697501481
546,martil,35.6166,-5.2752,19.98,77,0,1.54,MA,1697501481
547,merritt,50.1123,-120.7942,14.07,77,96,4.47,CA,1697501481
548,belfast,54.5833,-5.9333,7.33,93,75,2.57,GB,1697501481
549,south hedland,-20.4089,118.5983,31.96,7,0,6.69,AU,1697501482
550,turkmenbasy,40.0222,52.9552,17.66,50,100,2.47,TM,1697501482
551,tura,25.5198,90.2201,19.62,87,0,1.39,IN,1697501482
552,pacasmayo,-7.4006,-79.5714,20.44,83,67,5.4,PE,1697501482
553,kamina,-8.7386,24.9906,19.28,91,80,2.37,CD,1697501482
554,belmonte,-15.8631,-38.8828,23.2,79,0,2.38,BR,1697501482
555,larvik,59.0533,10.0352,7.17,79,40,2.57,NO,1697501483
556,san antonio de pale,-1.4014,5.6325,25.78,81,97,5.84,GQ,1697501483
557,i-n-salah,27.1935,2.4607,25.5,32,36,5.13,DZ,1697501483
558,vila velha,-20.3297,-40.2925,24.97,90,8,3.13,BR,1697501483
559,formosa,-26.1775,-58.1781,32.2,56,41,2.95,AR,1697501483
560,saba,15.4667,-86.25,21.26,98,99,0.24,HN,1697501483
561,oudtshoorn,-33.5907,22.2014,13.2,77,0,2.08,ZA,1697501484
562,conception bay south,47.4999,-52.9981,9.3,96,100,12.01,CA,1697501484
563,chuguyevka,44.1653,133.8633,4.39,49,8,4.42,RU,1697501484
564,bay roberts,47.5999,-53.2648,9.63,93,100,4.47,CA,1697501484
565,mahibadhoo,3.7833,72.9667,27.82,74,45,7.35,MV,1697501484
566,chulakkurgan,43.765,69.1814,6.46,65,0,2.21,KZ,1697501484
567,inarajan village,13.2736,144.7484,30.78,86,80,3.5,GU,1697501484
568,hammel,56.2576,9.8632,4.89,79,35,3.79,DK,1697501485
